{
  "records": [
    {
      "city": "Toluca",
      "country": "MX",
      "timestamp": "2025-11-14T02:47:28.603724",
      "temperature_celsius": 13.39,
      "feels_like": 12.19,
      "humidity_percent": 54,
      "pressure_hpa": 1023,
      "wind_speed_mps": 1.54,
      "weather_description": "clear sky",
      "cloudiness_percent": 0,
      "latitude": 19.2883,
      "longitude": -99.6672
    },
    {
      "city": "Mexico City",
      "country": "MX",
      "timestamp": "2025-11-14T02:47:28.603724",
      "temperature_celsius": 17.75,
      "feels_like": 16.34,
      "humidity_percent": 29,
      "pressure_hpa": 1019,
      "wind_speed_mps": 4.12,
      "weather_description": "clear sky",
      "cloudiness_percent": 0,
      "latitude": 19.4285,
      "longitude": -99.1277
    },
    {
      "city": "Guadalajara",
      "country": "MX",
      "timestamp": "2025-11-14T02:47:28.603724",
      "temperature_celsius": 16.87,
      "feels_like": 15.55,
      "humidity_percent": 36,
      "pressure_hpa": 1016,
      "wind_speed_mps": 0,
      "weather_description": "clear sky",
      "cloudiness_percent": 0,
      "latitude": 20.6667,
      "longitude": -103.3333
    },
    {
      "city": "Monterrey",
      "country": "MX",
      "timestamp": "2025-11-14T02:47:28.603724",
      "temperature_celsius": 22.04,
      "feels_like": 21.87,
      "humidity_percent": 60,
      "pressure_hpa": 1019,
      "wind_speed_mps": 2.24,
      "weather_description": "overcast clouds",
      "cloudiness_percent": 98,
      "latitude": 25.6667,
      "longitude": -100.3167
    },
    {
      "city": "Canc\u00fan",
      "country": "MX",
      "timestamp": "2025-11-14T02:47:28.603724",
      "temperature_celsius": 24.96,
      "feels_like": 25.55,
      "humidity_percent": 78,
      "pressure_hpa": 1018,
      "wind_speed_mps": 2.06,
      "weather_description": "light rain",
      "cloudiness_percent": 75,
      "latitude": 21.1743,
      "longitude": -86.8466
    }
  ]
}