{
  "records": [
    {
      "city": "Toluca",
      "country": "MX",
      "timestamp": "2025-11-27T08:47:28.657812",
      "temperature_celsius": 9.39,
      "feels_like": 8.91,
      "humidity_percent": 87,
      "pressure_hpa": 1022,
      "wind_speed_mps": 1.54,
      "weather_description": "broken clouds",
      "cloudiness_percent": 75,
      "latitude": 19.2883,
      "longitude": -99.6672
    },
    {
      "city": "Mexico City",
      "country": "MX",
      "timestamp": "2025-11-27T08:47:28.657812",
      "temperature_celsius": 13.86,
      "feels_like": 13.05,
      "humidity_percent": 67,
      "pressure_hpa": 1020,
      "wind_speed_mps": 5.14,
      "weather_description": "overcast clouds",
      "cloudiness_percent": 100,
      "latitude": 19.4285,
      "longitude": -99.1277
    },
    {
      "city": "Guadalajara",
      "country": "MX",
      "timestamp": "2025-11-27T08:47:28.657812",
      "temperature_celsius": 12.87,
      "feels_like": 12.2,
      "humidity_percent": 76,
      "pressure_hpa": 1020,
      "wind_speed_mps": 0,
      "weather_description": "few clouds",
      "cloudiness_percent": 20,
      "latitude": 20.6667,
      "longitude": -103.3333
    },
    {
      "city": "Monterrey",
      "country": "MX",
      "timestamp": "2025-11-27T08:47:28.657812",
      "temperature_celsius": 14.95,
      "feels_like": 14.77,
      "humidity_percent": 87,
      "pressure_hpa": 1025,
      "wind_speed_mps": 1.4,
      "weather_description": "overcast clouds",
      "cloudiness_percent": 100,
      "latitude": 25.6667,
      "longitude": -100.3167
    },
    {
      "city": "Canc\u00fan",
      "country": "MX",
      "timestamp": "2025-11-27T08:47:28.657812",
      "temperature_celsius": 21.96,
      "feels_like": 22.67,
      "humidity_percent": 94,
      "pressure_hpa": 1016,
      "wind_speed_mps": 1.54,
      "weather_description": "scattered clouds",
      "cloudiness_percent": 40,
      "latitude": 21.1743,
      "longitude": -86.8466
    }
  ]
}