{
  "records": [
    {
      "city": "Toluca",
      "country": "MX",
      "timestamp": "2025-11-27T14:47:28.615653",
      "temperature_celsius": 7.39,
      "feels_like": 5.68,
      "humidity_percent": 93,
      "pressure_hpa": 1025,
      "wind_speed_mps": 2.57,
      "weather_description": "haze",
      "cloudiness_percent": 100,
      "latitude": 19.2883,
      "longitude": -99.6672
    },
    {
      "city": "Mexico City",
      "country": "MX",
      "timestamp": "2025-11-27T14:47:28.615653",
      "temperature_celsius": 13.86,
      "feels_like": 13.16,
      "humidity_percent": 71,
      "pressure_hpa": 1024,
      "wind_speed_mps": 2.57,
      "weather_description": "overcast clouds",
      "cloudiness_percent": 100,
      "latitude": 19.4285,
      "longitude": -99.1277
    },
    {
      "city": "Guadalajara",
      "country": "MX",
      "timestamp": "2025-11-27T14:47:28.615653",
      "temperature_celsius": 14.52,
      "feels_like": 13.59,
      "humidity_percent": 60,
      "pressure_hpa": 1022,
      "wind_speed_mps": 1.8,
      "weather_description": "few clouds",
      "cloudiness_percent": 11,
      "latitude": 20.6667,
      "longitude": -103.3333
    },
    {
      "city": "Monterrey",
      "country": "MX",
      "timestamp": "2025-11-27T14:47:28.615653",
      "temperature_celsius": 14.2,
      "feels_like": 11.7,
      "humidity_percent": 1,
      "pressure_hpa": 1028,
      "wind_speed_mps": 1.79,
      "weather_description": "overcast clouds",
      "cloudiness_percent": 94,
      "latitude": 25.6667,
      "longitude": -100.3167
    },
    {
      "city": "Canc\u00fan",
      "country": "MX",
      "timestamp": "2025-11-27T14:47:28.615653",
      "temperature_celsius": 24.96,
      "feels_like": 25.97,
      "humidity_percent": 94,
      "pressure_hpa": 1019,
      "wind_speed_mps": 0,
      "weather_description": "broken clouds",
      "cloudiness_percent": 75,
      "latitude": 21.1743,
      "longitude": -86.8466
    }
  ]
}