{
  "records": [
    {
      "city": "Toluca",
      "country": "MX",
      "timestamp": "2025-11-13T14:47:28.620716",
      "temperature_celsius": 7.39,
      "feels_like": 7.39,
      "humidity_percent": 81,
      "pressure_hpa": 1022,
      "wind_speed_mps": 0,
      "weather_description": "few clouds",
      "cloudiness_percent": 20,
      "latitude": 19.2883,
      "longitude": -99.6672
    },
    {
      "city": "Mexico City",
      "country": "MX",
      "timestamp": "2025-11-13T14:47:28.620716",
      "temperature_celsius": 11.96,
      "feels_like": 10.33,
      "humidity_percent": 43,
      "pressure_hpa": 1022,
      "wind_speed_mps": 1.54,
      "weather_description": "clear sky",
      "cloudiness_percent": 0,
      "latitude": 19.4285,
      "longitude": -99.1277
    },
    {
      "city": "Guadalajara",
      "country": "MX",
      "timestamp": "2025-11-13T14:47:28.620716",
      "temperature_celsius": 9.87,
      "feels_like": 9.87,
      "humidity_percent": 81,
      "pressure_hpa": 1021,
      "wind_speed_mps": 0,
      "weather_description": "scattered clouds",
      "cloudiness_percent": 40,
      "latitude": 20.6667,
      "longitude": -103.3333
    },
    {
      "city": "Monterrey",
      "country": "MX",
      "timestamp": "2025-11-13T14:47:28.620716",
      "temperature_celsius": 21.36,
      "feels_like": 20.96,
      "humidity_percent": 54,
      "pressure_hpa": 1021,
      "wind_speed_mps": 1.03,
      "weather_description": "clear sky",
      "cloudiness_percent": 5,
      "latitude": 25.6667,
      "longitude": -100.3167
    },
    {
      "city": "Canc\u00fan",
      "country": "MX",
      "timestamp": "2025-11-13T14:47:28.620716",
      "temperature_celsius": 25.54,
      "feels_like": 26.24,
      "humidity_percent": 80,
      "pressure_hpa": 1020,
      "wind_speed_mps": 2.57,
      "weather_description": "light rain",
      "cloudiness_percent": 100,
      "latitude": 21.1743,
      "longitude": -86.8466
    }
  ]
}