{
  "records": [
    {
      "city": "Toluca",
      "country": "MX",
      "timestamp": "2025-11-24T02:47:28.553743",
      "temperature_celsius": 11.39,
      "feels_like": 10.57,
      "humidity_percent": 76,
      "pressure_hpa": 1020,
      "wind_speed_mps": 3.09,
      "weather_description": "clear sky",
      "cloudiness_percent": 0,
      "latitude": 19.2883,
      "longitude": -99.6672
    },
    {
      "city": "Mexico City",
      "country": "MX",
      "timestamp": "2025-11-24T02:47:28.553743",
      "temperature_celsius": 15.53,
      "feels_like": 14.47,
      "humidity_percent": 51,
      "pressure_hpa": 1016,
      "wind_speed_mps": 4.12,
      "weather_description": "clear sky",
      "cloudiness_percent": 0,
      "latitude": 19.4285,
      "longitude": -99.1277
    },
    {
      "city": "Guadalajara",
      "country": "MX",
      "timestamp": "2025-11-24T02:47:28.553743",
      "temperature_celsius": 17.87,
      "feels_like": 17.25,
      "humidity_percent": 59,
      "pressure_hpa": 1015,
      "wind_speed_mps": 0,
      "weather_description": "few clouds",
      "cloudiness_percent": 20,
      "latitude": 20.6667,
      "longitude": -103.3333
    },
    {
      "city": "Monterrey",
      "country": "MX",
      "timestamp": "2025-11-24T02:47:28.553743",
      "temperature_celsius": 23.15,
      "feels_like": 23.19,
      "humidity_percent": 64,
      "pressure_hpa": 1014,
      "wind_speed_mps": 4.02,
      "weather_description": "scattered clouds",
      "cloudiness_percent": 30,
      "latitude": 25.6667,
      "longitude": -100.3167
    },
    {
      "city": "Canc\u00fan",
      "country": "MX",
      "timestamp": "2025-11-24T02:47:28.553743",
      "temperature_celsius": 25.03,
      "feels_like": 25.63,
      "humidity_percent": 78,
      "pressure_hpa": 1017,
      "wind_speed_mps": 3.28,
      "weather_description": "clear sky",
      "cloudiness_percent": 0,
      "latitude": 21.1743,
      "longitude": -86.8466
    }
  ]
}