{
  "records": [
    {
      "city": "Toluca",
      "country": "MX",
      "timestamp": "2025-11-24T20:47:28.574030",
      "temperature_celsius": 19.39,
      "feels_like": 18.22,
      "humidity_percent": 32,
      "pressure_hpa": 1012,
      "wind_speed_mps": 3.6,
      "weather_description": "clear sky",
      "cloudiness_percent": 0,
      "latitude": 19.2883,
      "longitude": -99.6672
    },
    {
      "city": "Mexico City",
      "country": "MX",
      "timestamp": "2025-11-24T20:47:28.574030",
      "temperature_celsius": 23.86,
      "feels_like": 22.72,
      "humidity_percent": 16,
      "pressure_hpa": 1010,
      "wind_speed_mps": 0,
      "weather_description": "clear sky",
      "cloudiness_percent": 0,
      "latitude": 19.4285,
      "longitude": -99.1277
    },
    {
      "city": "Guadalajara",
      "country": "MX",
      "timestamp": "2025-11-24T20:47:28.574030",
      "temperature_celsius": 25.87,
      "feels_like": 25.5,
      "humidity_percent": 38,
      "pressure_hpa": 1010,
      "wind_speed_mps": 2.06,
      "weather_description": "scattered clouds",
      "cloudiness_percent": 40,
      "latitude": 20.6667,
      "longitude": -103.3333
    },
    {
      "city": "Monterrey",
      "country": "MX",
      "timestamp": "2025-11-24T20:47:28.574030",
      "temperature_celsius": 29.94,
      "feels_like": 30.11,
      "humidity_percent": 44,
      "pressure_hpa": 1010,
      "wind_speed_mps": 7.15,
      "weather_description": "clear sky",
      "cloudiness_percent": 4,
      "latitude": 25.6667,
      "longitude": -100.3167
    },
    {
      "city": "Canc\u00fan",
      "country": "MX",
      "timestamp": "2025-11-24T20:47:28.574030",
      "temperature_celsius": 27.96,
      "feels_like": 29.5,
      "humidity_percent": 61,
      "pressure_hpa": 1014,
      "wind_speed_mps": 4.12,
      "weather_description": "scattered clouds",
      "cloudiness_percent": 40,
      "latitude": 21.1743,
      "longitude": -86.8466
    }
  ]
}