{
  "records": [
    {
      "city": "Toluca",
      "country": "MX",
      "timestamp": "2025-11-19T08:47:28.592594",
      "temperature_celsius": 5.39,
      "feels_like": 3.3,
      "humidity_percent": 87,
      "pressure_hpa": 1022,
      "wind_speed_mps": 2.57,
      "weather_description": "clear sky",
      "cloudiness_percent": 0,
      "latitude": 19.2883,
      "longitude": -99.6672
    },
    {
      "city": "Mexico City",
      "country": "MX",
      "timestamp": "2025-11-19T08:47:28.592594",
      "temperature_celsius": 14.97,
      "feels_like": 13.38,
      "humidity_percent": 33,
      "pressure_hpa": 1018,
      "wind_speed_mps": 0,
      "weather_description": "few clouds",
      "cloudiness_percent": 20,
      "latitude": 19.4285,
      "longitude": -99.1277
    },
    {
      "city": "Guadalajara",
      "country": "MX",
      "timestamp": "2025-11-19T08:47:28.592594",
      "temperature_celsius": 14.89,
      "feels_like": 14.05,
      "humidity_percent": 62,
      "pressure_hpa": 1017,
      "wind_speed_mps": 0.39,
      "weather_description": "clear sky",
      "cloudiness_percent": 7,
      "latitude": 20.6667,
      "longitude": -103.3333
    },
    {
      "city": "Monterrey",
      "country": "MX",
      "timestamp": "2025-11-19T08:47:28.592594",
      "temperature_celsius": 21.43,
      "feels_like": 19.86,
      "humidity_percent": 9,
      "pressure_hpa": 1016,
      "wind_speed_mps": 0.47,
      "weather_description": "broken clouds",
      "cloudiness_percent": 73,
      "latitude": 25.6667,
      "longitude": -100.3167
    },
    {
      "city": "Canc\u00fan",
      "country": "MX",
      "timestamp": "2025-11-19T08:47:28.592594",
      "temperature_celsius": 19.96,
      "feels_like": 20.47,
      "humidity_percent": 94,
      "pressure_hpa": 1016,
      "wind_speed_mps": 0,
      "weather_description": "clear sky",
      "cloudiness_percent": 0,
      "latitude": 21.1743,
      "longitude": -86.8466
    }
  ]
}