{
  "records": [
    {
      "city": "Toluca",
      "country": "MX",
      "timestamp": "2025-11-19T02:47:28.609500",
      "temperature_celsius": 11.5,
      "feels_like": 10.43,
      "humidity_percent": 66,
      "pressure_hpa": 1022,
      "wind_speed_mps": 0.84,
      "weather_description": "scattered clouds",
      "cloudiness_percent": 40,
      "latitude": 19.2883,
      "longitude": -99.6672
    },
    {
      "city": "Mexico City",
      "country": "MX",
      "timestamp": "2025-11-19T02:47:28.609500",
      "temperature_celsius": 19.97,
      "feels_like": 18.91,
      "humidity_percent": 34,
      "pressure_hpa": 1018,
      "wind_speed_mps": 5.14,
      "weather_description": "clear sky",
      "cloudiness_percent": 0,
      "latitude": 19.4285,
      "longitude": -99.1277
    },
    {
      "city": "Guadalajara",
      "country": "MX",
      "timestamp": "2025-11-19T02:47:28.609500",
      "temperature_celsius": 19.87,
      "feels_like": 19.27,
      "humidity_percent": 52,
      "pressure_hpa": 1016,
      "wind_speed_mps": 0,
      "weather_description": "overcast clouds",
      "cloudiness_percent": 100,
      "latitude": 20.6667,
      "longitude": -103.3333
    },
    {
      "city": "Monterrey",
      "country": "MX",
      "timestamp": "2025-11-19T02:47:28.609500",
      "temperature_celsius": 22.76,
      "feels_like": 22.76,
      "humidity_percent": 64,
      "pressure_hpa": 1016,
      "wind_speed_mps": 4.92,
      "weather_description": "scattered clouds",
      "cloudiness_percent": 41,
      "latitude": 25.6667,
      "longitude": -100.3167
    },
    {
      "city": "Canc\u00fan",
      "country": "MX",
      "timestamp": "2025-11-19T02:47:28.609500",
      "temperature_celsius": 21.96,
      "feels_like": 22.67,
      "humidity_percent": 94,
      "pressure_hpa": 1018,
      "wind_speed_mps": 0,
      "weather_description": "scattered clouds",
      "cloudiness_percent": 40,
      "latitude": 21.1743,
      "longitude": -86.8466
    }
  ]
}