{
  "records": [
    {
      "city": "Toluca",
      "country": "MX",
      "timestamp": "2025-11-19T20:47:28.601055",
      "temperature_celsius": 21.39,
      "feels_like": 20.13,
      "humidity_percent": 21,
      "pressure_hpa": 1014,
      "wind_speed_mps": 6.17,
      "weather_description": "few clouds",
      "cloudiness_percent": 20,
      "latitude": 19.2883,
      "longitude": -99.6672
    },
    {
      "city": "Mexico City",
      "country": "MX",
      "timestamp": "2025-11-19T20:47:28.601055",
      "temperature_celsius": 24.97,
      "feels_like": 23.89,
      "humidity_percent": 14,
      "pressure_hpa": 1013,
      "wind_speed_mps": 2.57,
      "weather_description": "clear sky",
      "cloudiness_percent": 0,
      "latitude": 19.4285,
      "longitude": -99.1277
    },
    {
      "city": "Guadalajara",
      "country": "MX",
      "timestamp": "2025-11-19T20:47:28.601055",
      "temperature_celsius": 25.87,
      "feels_like": 25.58,
      "humidity_percent": 41,
      "pressure_hpa": 1011,
      "wind_speed_mps": 2.57,
      "weather_description": "scattered clouds",
      "cloudiness_percent": 40,
      "latitude": 20.6667,
      "longitude": -103.3333
    },
    {
      "city": "Monterrey",
      "country": "MX",
      "timestamp": "2025-11-19T20:47:28.601055",
      "temperature_celsius": 26.89,
      "feels_like": 27.04,
      "humidity_percent": 45,
      "pressure_hpa": 1013,
      "wind_speed_mps": 2.44,
      "weather_description": "scattered clouds",
      "cloudiness_percent": 41,
      "latitude": 25.6667,
      "longitude": -100.3167
    },
    {
      "city": "Canc\u00fan",
      "country": "MX",
      "timestamp": "2025-11-19T20:47:28.601055",
      "temperature_celsius": 28.87,
      "feels_like": 32.99,
      "humidity_percent": 73,
      "pressure_hpa": 1015,
      "wind_speed_mps": 0.89,
      "weather_description": "overcast clouds",
      "cloudiness_percent": 100,
      "latitude": 21.1743,
      "longitude": -86.8466
    }
  ]
}