{
  "records": [
    {
      "city": "Toluca",
      "country": "MX",
      "timestamp": "2025-11-30T02:47:28.661015",
      "temperature_celsius": 10.39,
      "feels_like": 9.63,
      "humidity_percent": 82,
      "pressure_hpa": 1020,
      "wind_speed_mps": 3.09,
      "weather_description": "scattered clouds",
      "cloudiness_percent": 40,
      "latitude": 19.2883,
      "longitude": -99.6672
    },
    {
      "city": "Mexico City",
      "country": "MX",
      "timestamp": "2025-11-30T02:47:28.661015",
      "temperature_celsius": 16.64,
      "feels_like": 15.53,
      "humidity_percent": 45,
      "pressure_hpa": 1016,
      "wind_speed_mps": 2.06,
      "weather_description": "scattered clouds",
      "cloudiness_percent": 40,
      "latitude": 19.4285,
      "longitude": -99.1277
    },
    {
      "city": "Guadalajara",
      "country": "MX",
      "timestamp": "2025-11-30T02:47:28.661015",
      "temperature_celsius": 17.87,
      "feels_like": 16.97,
      "humidity_percent": 48,
      "pressure_hpa": 1016,
      "wind_speed_mps": 2.06,
      "weather_description": "scattered clouds",
      "cloudiness_percent": 40,
      "latitude": 20.6667,
      "longitude": -103.3333
    },
    {
      "city": "Monterrey",
      "country": "MX",
      "timestamp": "2025-11-30T02:47:28.661015",
      "temperature_celsius": 19.76,
      "feels_like": 19.88,
      "humidity_percent": 80,
      "pressure_hpa": 1016,
      "wind_speed_mps": 1.83,
      "weather_description": "overcast clouds",
      "cloudiness_percent": 85,
      "latitude": 25.6667,
      "longitude": -100.3167
    },
    {
      "city": "Canc\u00fan",
      "country": "MX",
      "timestamp": "2025-11-30T02:47:28.661015",
      "temperature_celsius": 21.96,
      "feels_like": 22.82,
      "humidity_percent": 100,
      "pressure_hpa": 1017,
      "wind_speed_mps": 0,
      "weather_description": "few clouds",
      "cloudiness_percent": 20,
      "latitude": 21.1743,
      "longitude": -86.8466
    }
  ]
}