{
  "records": [
    {
      "city": "Toluca",
      "country": "MX",
      "timestamp": "2025-11-16T14:47:28.579346",
      "temperature_celsius": 7.39,
      "feels_like": 7.39,
      "humidity_percent": 71,
      "pressure_hpa": 1019,
      "wind_speed_mps": 0,
      "weather_description": "clear sky",
      "cloudiness_percent": 0,
      "latitude": 19.2883,
      "longitude": -99.6672
    },
    {
      "city": "Mexico City",
      "country": "MX",
      "timestamp": "2025-11-16T14:47:28.579346",
      "temperature_celsius": 9.96,
      "feels_like": 9.1,
      "humidity_percent": 46,
      "pressure_hpa": 1018,
      "wind_speed_mps": 2.06,
      "weather_description": "clear sky",
      "cloudiness_percent": 0,
      "latitude": 19.4285,
      "longitude": -99.1277
    },
    {
      "city": "Guadalajara",
      "country": "MX",
      "timestamp": "2025-11-16T14:47:28.579346",
      "temperature_celsius": 11.87,
      "feels_like": 11.57,
      "humidity_percent": 94,
      "pressure_hpa": 1017,
      "wind_speed_mps": 0,
      "weather_description": "clear sky",
      "cloudiness_percent": 0,
      "latitude": 20.6667,
      "longitude": -103.3333
    },
    {
      "city": "Monterrey",
      "country": "MX",
      "timestamp": "2025-11-16T14:47:28.579346",
      "temperature_celsius": 15.37,
      "feels_like": 14.24,
      "humidity_percent": 49,
      "pressure_hpa": 1013,
      "wind_speed_mps": 0.43,
      "weather_description": "clear sky",
      "cloudiness_percent": 0,
      "latitude": 25.6667,
      "longitude": -100.3167
    },
    {
      "city": "Canc\u00fan",
      "country": "MX",
      "timestamp": "2025-11-16T14:47:28.579346",
      "temperature_celsius": 23.96,
      "feels_like": 24.58,
      "humidity_percent": 83,
      "pressure_hpa": 1015,
      "wind_speed_mps": 1.54,
      "weather_description": "few clouds",
      "cloudiness_percent": 20,
      "latitude": 21.1743,
      "longitude": -86.8466
    }
  ]
}