{
  "records": [
    {
      "city": "Toluca",
      "country": "MX",
      "timestamp": "2025-11-15T02:47:28.590563",
      "temperature_celsius": 12.39,
      "feels_like": 11.3,
      "humidity_percent": 62,
      "pressure_hpa": 1021,
      "wind_speed_mps": 1.54,
      "weather_description": "few clouds",
      "cloudiness_percent": 20,
      "latitude": 19.2883,
      "longitude": -99.6672
    },
    {
      "city": "Mexico City",
      "country": "MX",
      "timestamp": "2025-11-15T02:47:28.590563",
      "temperature_celsius": 18.86,
      "feels_like": 17.38,
      "humidity_percent": 22,
      "pressure_hpa": 1017,
      "wind_speed_mps": 6.17,
      "weather_description": "few clouds",
      "cloudiness_percent": 20,
      "latitude": 19.4285,
      "longitude": -99.1277
    },
    {
      "city": "Guadalajara",
      "country": "MX",
      "timestamp": "2025-11-15T02:47:28.590563",
      "temperature_celsius": 16.87,
      "feels_like": 15.71,
      "humidity_percent": 42,
      "pressure_hpa": 1015,
      "wind_speed_mps": 1.54,
      "weather_description": "clear sky",
      "cloudiness_percent": 0,
      "latitude": 20.6667,
      "longitude": -103.3333
    },
    {
      "city": "Monterrey",
      "country": "MX",
      "timestamp": "2025-11-15T02:47:28.590563",
      "temperature_celsius": 22.79,
      "feels_like": 22.74,
      "humidity_percent": 62,
      "pressure_hpa": 1018,
      "wind_speed_mps": 4.47,
      "weather_description": "few clouds",
      "cloudiness_percent": 19,
      "latitude": 25.6667,
      "longitude": -100.3167
    },
    {
      "city": "Canc\u00fan",
      "country": "MX",
      "timestamp": "2025-11-15T02:47:28.590563",
      "temperature_celsius": 22.96,
      "feels_like": 23.77,
      "humidity_percent": 94,
      "pressure_hpa": 1017,
      "wind_speed_mps": 0,
      "weather_description": "light rain",
      "cloudiness_percent": 40,
      "latitude": 21.1743,
      "longitude": -86.8466
    }
  ]
}