{
  "records": [
    {
      "city": "Toluca",
      "country": "MX",
      "timestamp": "2025-11-15T14:47:28.604894",
      "temperature_celsius": 6.39,
      "feels_like": 6.39,
      "humidity_percent": 65,
      "pressure_hpa": 1020,
      "wind_speed_mps": 0,
      "weather_description": "clear sky",
      "cloudiness_percent": 0,
      "latitude": 19.2883,
      "longitude": -99.6672
    },
    {
      "city": "Mexico City",
      "country": "MX",
      "timestamp": "2025-11-15T14:47:28.604894",
      "temperature_celsius": 7.96,
      "feels_like": 6.36,
      "humidity_percent": 66,
      "pressure_hpa": 1019,
      "wind_speed_mps": 2.57,
      "weather_description": "few clouds",
      "cloudiness_percent": 20,
      "latitude": 19.4285,
      "longitude": -99.1277
    },
    {
      "city": "Guadalajara",
      "country": "MX",
      "timestamp": "2025-11-15T14:47:28.604894",
      "temperature_celsius": 9.87,
      "feels_like": 9.87,
      "humidity_percent": 81,
      "pressure_hpa": 1017,
      "wind_speed_mps": 0,
      "weather_description": "clear sky",
      "cloudiness_percent": 0,
      "latitude": 20.6667,
      "longitude": -103.3333
    },
    {
      "city": "Monterrey",
      "country": "MX",
      "timestamp": "2025-11-15T14:47:28.604894",
      "temperature_celsius": 20.31,
      "feels_like": 20.2,
      "humidity_percent": 69,
      "pressure_hpa": 1016,
      "wind_speed_mps": 0.95,
      "weather_description": "overcast clouds",
      "cloudiness_percent": 98,
      "latitude": 25.6667,
      "longitude": -100.3167
    },
    {
      "city": "Canc\u00fan",
      "country": "MX",
      "timestamp": "2025-11-15T14:47:28.604894",
      "temperature_celsius": 27.2,
      "feels_like": 29.98,
      "humidity_percent": 78,
      "pressure_hpa": 1016,
      "wind_speed_mps": 1.54,
      "weather_description": "light rain",
      "cloudiness_percent": 40,
      "latitude": 21.1743,
      "longitude": -86.8466
    }
  ]
}