{
  "records": [
    {
      "city": "Toluca",
      "country": "MX",
      "timestamp": "2025-11-26T02:47:28.598219",
      "temperature_celsius": 13.39,
      "feels_like": 12.19,
      "humidity_percent": 54,
      "pressure_hpa": 1020,
      "wind_speed_mps": 1.03,
      "weather_description": "few clouds",
      "cloudiness_percent": 20,
      "latitude": 19.2883,
      "longitude": -99.6672
    },
    {
      "city": "Mexico City",
      "country": "MX",
      "timestamp": "2025-11-26T02:47:28.598219",
      "temperature_celsius": 17.75,
      "feels_like": 16.52,
      "humidity_percent": 36,
      "pressure_hpa": 1016,
      "wind_speed_mps": 3.09,
      "weather_description": "few clouds",
      "cloudiness_percent": 20,
      "latitude": 19.4285,
      "longitude": -99.1277
    },
    {
      "city": "Guadalajara",
      "country": "MX",
      "timestamp": "2025-11-26T02:47:28.598219",
      "temperature_celsius": 21.87,
      "feels_like": 21.39,
      "humidity_percent": 49,
      "pressure_hpa": 1014,
      "wind_speed_mps": 2.06,
      "weather_description": "broken clouds",
      "cloudiness_percent": 75,
      "latitude": 20.6667,
      "longitude": -103.3333
    },
    {
      "city": "Monterrey",
      "country": "MX",
      "timestamp": "2025-11-26T02:47:28.598219",
      "temperature_celsius": 23.62,
      "feels_like": 23.76,
      "humidity_percent": 66,
      "pressure_hpa": 1018,
      "wind_speed_mps": 6.26,
      "weather_description": "overcast clouds",
      "cloudiness_percent": 92,
      "latitude": 25.6667,
      "longitude": -100.3167
    },
    {
      "city": "Canc\u00fan",
      "country": "MX",
      "timestamp": "2025-11-26T02:47:28.598219",
      "temperature_celsius": 25.96,
      "feels_like": 25.96,
      "humidity_percent": 83,
      "pressure_hpa": 1016,
      "wind_speed_mps": 0,
      "weather_description": "few clouds",
      "cloudiness_percent": 20,
      "latitude": 21.1743,
      "longitude": -86.8466
    }
  ]
}