{
  "records": [
    {
      "city": "Toluca",
      "country": "MX",
      "timestamp": "2025-12-02T02:47:28.584293",
      "temperature_celsius": 11.39,
      "feels_like": 10.57,
      "humidity_percent": 76,
      "pressure_hpa": 1020,
      "wind_speed_mps": 1.54,
      "weather_description": "broken clouds",
      "cloudiness_percent": 75,
      "latitude": 19.2883,
      "longitude": -99.6672
    },
    {
      "city": "Mexico City",
      "country": "MX",
      "timestamp": "2025-12-02T02:47:28.584293",
      "temperature_celsius": 17.75,
      "feels_like": 16.83,
      "humidity_percent": 48,
      "pressure_hpa": 1015,
      "wind_speed_mps": 3.09,
      "weather_description": "scattered clouds",
      "cloudiness_percent": 40,
      "latitude": 19.4285,
      "longitude": -99.1277
    },
    {
      "city": "Guadalajara",
      "country": "MX",
      "timestamp": "2025-12-02T02:47:28.584293",
      "temperature_celsius": 20.87,
      "feels_like": 20.29,
      "humidity_percent": 49,
      "pressure_hpa": 1016,
      "wind_speed_mps": 3.6,
      "weather_description": "broken clouds",
      "cloudiness_percent": 75,
      "latitude": 20.6667,
      "longitude": -103.3333
    },
    {
      "city": "Monterrey",
      "country": "MX",
      "timestamp": "2025-12-02T02:47:28.584293",
      "temperature_celsius": 13.64,
      "feels_like": 12.91,
      "humidity_percent": 71,
      "pressure_hpa": 1017,
      "wind_speed_mps": 0.68,
      "weather_description": "overcast clouds",
      "cloudiness_percent": 91,
      "latitude": 25.6667,
      "longitude": -100.3167
    },
    {
      "city": "Canc\u00fan",
      "country": "MX",
      "timestamp": "2025-12-02T02:47:28.584293",
      "temperature_celsius": 23.96,
      "feels_like": 24.71,
      "humidity_percent": 88,
      "pressure_hpa": 1014,
      "wind_speed_mps": 0,
      "weather_description": "few clouds",
      "cloudiness_percent": 20,
      "latitude": 21.1743,
      "longitude": -86.8466
    }
  ]
}