{
  "records": [
    {
      "city": "Toluca",
      "country": "MX",
      "timestamp": "2025-11-12T20:47:28.615077",
      "temperature_celsius": 20.39,
      "feels_like": 19.32,
      "humidity_percent": 32,
      "pressure_hpa": 1016,
      "wind_speed_mps": 1.03,
      "weather_description": "light rain",
      "cloudiness_percent": 75,
      "latitude": 19.2883,
      "longitude": -99.6672
    },
    {
      "city": "Mexico City",
      "country": "MX",
      "timestamp": "2025-11-12T20:47:28.615077",
      "temperature_celsius": 21.64,
      "feels_like": 20.64,
      "humidity_percent": 30,
      "pressure_hpa": 1014,
      "wind_speed_mps": 2.06,
      "weather_description": "scattered clouds",
      "cloudiness_percent": 40,
      "latitude": 19.4285,
      "longitude": -99.1277
    },
    {
      "city": "Guadalajara",
      "country": "MX",
      "timestamp": "2025-11-12T20:47:28.615077",
      "temperature_celsius": 24.87,
      "feels_like": 23.91,
      "humidity_percent": 19,
      "pressure_hpa": 1014,
      "wind_speed_mps": 1.54,
      "weather_description": "scattered clouds",
      "cloudiness_percent": 40,
      "latitude": 20.6667,
      "longitude": -103.3333
    },
    {
      "city": "Monterrey",
      "country": "MX",
      "timestamp": "2025-11-12T20:47:28.615077",
      "temperature_celsius": 29.94,
      "feels_like": 28.77,
      "humidity_percent": 31,
      "pressure_hpa": 1017,
      "wind_speed_mps": 11.18,
      "weather_description": "scattered clouds",
      "cloudiness_percent": 30,
      "latitude": 25.6667,
      "longitude": -100.3167
    },
    {
      "city": "Canc\u00fan",
      "country": "MX",
      "timestamp": "2025-11-12T20:47:28.615077",
      "temperature_celsius": 22.2,
      "feels_like": 22.7,
      "humidity_percent": 85,
      "pressure_hpa": 1018,
      "wind_speed_mps": 2.06,
      "weather_description": "light rain",
      "cloudiness_percent": 100,
      "latitude": 21.1743,
      "longitude": -86.8466
    }
  ]
}