{
  "records": [
    {
      "city": "Toluca",
      "country": "MX",
      "timestamp": "2025-11-23T02:47:28.621862",
      "temperature_celsius": 12.39,
      "feels_like": 11.67,
      "humidity_percent": 76,
      "pressure_hpa": 1022,
      "wind_speed_mps": 4.12,
      "weather_description": "clear sky",
      "cloudiness_percent": 0,
      "latitude": 19.2883,
      "longitude": -99.6672
    },
    {
      "city": "Mexico City",
      "country": "MX",
      "timestamp": "2025-11-23T02:47:28.621862",
      "temperature_celsius": 16.64,
      "feels_like": 15.69,
      "humidity_percent": 51,
      "pressure_hpa": 1019,
      "wind_speed_mps": 4.12,
      "weather_description": "clear sky",
      "cloudiness_percent": 0,
      "latitude": 19.4285,
      "longitude": -99.1277
    },
    {
      "city": "Guadalajara",
      "country": "MX",
      "timestamp": "2025-11-23T02:47:28.621862",
      "temperature_celsius": 17.87,
      "feels_like": 17.07,
      "humidity_percent": 52,
      "pressure_hpa": 1015,
      "wind_speed_mps": 0,
      "weather_description": "scattered clouds",
      "cloudiness_percent": 40,
      "latitude": 20.6667,
      "longitude": -103.3333
    },
    {
      "city": "Monterrey",
      "country": "MX",
      "timestamp": "2025-11-23T02:47:28.621862",
      "temperature_celsius": 23.49,
      "feels_like": 23.38,
      "humidity_percent": 57,
      "pressure_hpa": 1020,
      "wind_speed_mps": 4.47,
      "weather_description": "overcast clouds",
      "cloudiness_percent": 100,
      "latitude": 25.6667,
      "longitude": -100.3167
    },
    {
      "city": "Canc\u00fan",
      "country": "MX",
      "timestamp": "2025-11-23T02:47:28.621862",
      "temperature_celsius": 21.96,
      "feels_like": 22.51,
      "humidity_percent": 88,
      "pressure_hpa": 1018,
      "wind_speed_mps": 0,
      "weather_description": "few clouds",
      "cloudiness_percent": 20,
      "latitude": 21.1743,
      "longitude": -86.8466
    }
  ]
}