{
  "records": [
    {
      "city": "Toluca",
      "country": "MX",
      "timestamp": "2025-11-22T20:47:28.579356",
      "temperature_celsius": 21.39,
      "feels_like": 20.19,
      "humidity_percent": 23,
      "pressure_hpa": 1013,
      "wind_speed_mps": 2.06,
      "weather_description": "clear sky",
      "cloudiness_percent": 0,
      "latitude": 19.2883,
      "longitude": -99.6672
    },
    {
      "city": "Mexico City",
      "country": "MX",
      "timestamp": "2025-11-22T20:47:28.579356",
      "temperature_celsius": 23.86,
      "feels_like": 22.82,
      "humidity_percent": 20,
      "pressure_hpa": 1013,
      "wind_speed_mps": 2.06,
      "weather_description": "clear sky",
      "cloudiness_percent": 0,
      "latitude": 19.4285,
      "longitude": -99.1277
    },
    {
      "city": "Guadalajara",
      "country": "MX",
      "timestamp": "2025-11-22T20:47:28.579356",
      "temperature_celsius": 26.87,
      "feels_like": 26.72,
      "humidity_percent": 39,
      "pressure_hpa": 1010,
      "wind_speed_mps": 0,
      "weather_description": "clear sky",
      "cloudiness_percent": 0,
      "latitude": 20.6667,
      "longitude": -103.3333
    },
    {
      "city": "Monterrey",
      "country": "MX",
      "timestamp": "2025-11-22T20:47:28.579356",
      "temperature_celsius": 24.2,
      "feels_like": 24.29,
      "humidity_percent": 62,
      "pressure_hpa": 1017,
      "wind_speed_mps": 2.51,
      "weather_description": "overcast clouds",
      "cloudiness_percent": 100,
      "latitude": 25.6667,
      "longitude": -100.3167
    },
    {
      "city": "Canc\u00fan",
      "country": "MX",
      "timestamp": "2025-11-22T20:47:28.579356",
      "temperature_celsius": 27.96,
      "feels_like": 29.96,
      "humidity_percent": 65,
      "pressure_hpa": 1015,
      "wind_speed_mps": 0,
      "weather_description": "broken clouds",
      "cloudiness_percent": 75,
      "latitude": 21.1743,
      "longitude": -86.8466
    }
  ]
}