{
  "records": [
    {
      "city": "Toluca",
      "country": "MX",
      "timestamp": "2025-11-06T02:47:28.592985",
      "temperature_celsius": 11.39,
      "feels_like": 10.57,
      "humidity_percent": 76,
      "pressure_hpa": 1024,
      "wind_speed_mps": 3.09,
      "weather_description": "clear sky",
      "cloudiness_percent": 0,
      "latitude": 19.2883,
      "longitude": -99.6672
    },
    {
      "city": "Mexico City",
      "country": "MX",
      "timestamp": "2025-11-06T02:47:28.592985",
      "temperature_celsius": 17.75,
      "feels_like": 16.52,
      "humidity_percent": 36,
      "pressure_hpa": 1020,
      "wind_speed_mps": 7.2,
      "weather_description": "few clouds",
      "cloudiness_percent": 20,
      "latitude": 19.4285,
      "longitude": -99.1277
    },
    {
      "city": "Guadalajara",
      "country": "MX",
      "timestamp": "2025-11-06T02:47:28.592985",
      "temperature_celsius": 15.87,
      "feels_like": 14.66,
      "humidity_percent": 44,
      "pressure_hpa": 1019,
      "wind_speed_mps": 0,
      "weather_description": "clear sky",
      "cloudiness_percent": 0,
      "latitude": 20.6667,
      "longitude": -103.3333
    },
    {
      "city": "Monterrey",
      "country": "MX",
      "timestamp": "2025-11-06T02:47:28.592985",
      "temperature_celsius": 21.05,
      "feels_like": 20.83,
      "humidity_percent": 62,
      "pressure_hpa": 1021,
      "wind_speed_mps": 2.68,
      "weather_description": "clear sky",
      "cloudiness_percent": 0,
      "latitude": 25.6667,
      "longitude": -100.3167
    },
    {
      "city": "Canc\u00fan",
      "country": "MX",
      "timestamp": "2025-11-06T02:47:28.592985",
      "temperature_celsius": 25.03,
      "feels_like": 26.04,
      "humidity_percent": 94,
      "pressure_hpa": 1018,
      "wind_speed_mps": 2.6,
      "weather_description": "scattered clouds",
      "cloudiness_percent": 50,
      "latitude": 21.1743,
      "longitude": -86.8466
    }
  ]
}