{
  "records": [
    {
      "city": "Toluca",
      "country": "MX",
      "timestamp": "2025-11-28T08:47:28.606756",
      "temperature_celsius": 9.55,
      "feels_like": 9,
      "humidity_percent": 76,
      "pressure_hpa": 1023,
      "wind_speed_mps": 1.63,
      "weather_description": "overcast clouds",
      "cloudiness_percent": 99,
      "latitude": 19.2883,
      "longitude": -99.6672
    },
    {
      "city": "Mexico City",
      "country": "MX",
      "timestamp": "2025-11-28T08:47:28.606756",
      "temperature_celsius": 11.64,
      "feels_like": 10.58,
      "humidity_percent": 66,
      "pressure_hpa": 1023,
      "wind_speed_mps": 4.12,
      "weather_description": "broken clouds",
      "cloudiness_percent": 75,
      "latitude": 19.4285,
      "longitude": -99.1277
    },
    {
      "city": "Guadalajara",
      "country": "MX",
      "timestamp": "2025-11-28T08:47:28.606756",
      "temperature_celsius": 15.87,
      "feels_like": 15.05,
      "humidity_percent": 59,
      "pressure_hpa": 1020,
      "wind_speed_mps": 0,
      "weather_description": "scattered clouds",
      "cloudiness_percent": 40,
      "latitude": 20.6667,
      "longitude": -103.3333
    },
    {
      "city": "Monterrey",
      "country": "MX",
      "timestamp": "2025-11-28T08:47:28.606756",
      "temperature_celsius": 16.56,
      "feels_like": 16.7,
      "humidity_percent": 93,
      "pressure_hpa": 1024,
      "wind_speed_mps": 2.25,
      "weather_description": "overcast clouds",
      "cloudiness_percent": 93,
      "latitude": 25.6667,
      "longitude": -100.3167
    },
    {
      "city": "Canc\u00fan",
      "country": "MX",
      "timestamp": "2025-11-28T08:47:28.606756",
      "temperature_celsius": 21.96,
      "feels_like": 22.67,
      "humidity_percent": 94,
      "pressure_hpa": 1017,
      "wind_speed_mps": 0,
      "weather_description": "light rain",
      "cloudiness_percent": 20,
      "latitude": 21.1743,
      "longitude": -86.8466
    }
  ]
}